City,Cloudiness,Country,Date,Humidity,Lat,Lng,Wind Speed,Max Temp
newport,100,GB,1590102937,79,51.59,-3.0,8.72,64.0
hobart,0,AU,1590102786,80,-42.88,147.33,4.7,51.01
puerto ayora,93,ES,1590103042,88,36.59,-6.23,2.24,71.01
tiksi,100,RU,1590103042,96,71.69,128.87,5.55,31.66
bluff,70,NZ,1590103042,79,-46.6,168.33,21.85,54.14
ampanihy,0,MG,1590103042,86,-24.7,44.75,6.82,63.64
ahipara,11,NZ,1590103042,65,-35.17,173.17,7.56,62.55
flinders,82,AU,1590103042,61,-34.58,150.86,11.01,57.0
nouadhibou,0,MR,1590103042,77,20.93,-17.03,21.92,68.0
boende,97,CD,1590103042,89,-0.22,20.87,3.09,73.33
ushuaia,75,AR,1590102881,82,-54.8,-68.3,13.87,42.8
magomeni,40,TZ,1590103042,94,-6.8,39.25,5.82,71.6
yellowknife,90,CA,1590102943,46,62.46,-114.35,11.41,50.0
kapaa,90,US,1590103042,83,22.08,-159.32,21.92,77.0
hithadhoo,80,MV,1590103042,76,-0.6,73.08,12.37,84.11
ossora,100,RU,1590103043,78,59.24,163.07,2.64,37.63
saskylakh,99,RU,1590103043,85,71.92,114.08,6.89,35.87
jamestown,1,US,1590102991,40,42.1,-79.24,8.05,72.0
vaini,75,TO,1590103043,83,-21.2,-175.2,3.36,77.0
provideniya,75,RU,1590103043,74,64.38,-173.3,20.13,35.6
tuktoyaktuk,0,CA,1590103043,93,69.45,-133.04,5.84,33.73
grand centre,1,US,1590103044,13,38.88,-109.5,9.17,73.4
bethel,1,US,1590103044,48,41.37,-73.41,12.75,66.99
rikitea,75,PF,1590103044,69,-23.12,-134.97,21.36,73.42
port alfred,12,CD,1590103044,66,-7.03,29.76,6.38,72.34
tazovskiy,95,RU,1590103044,78,67.47,78.7,4.32,49.23
pacific grove,79,US,1590103045,73,38.48,-90.74,3.65,68.0
norman wells,90,US,1590103045,73,35.22,-97.44,11.41,75.99
dingle,100,PH,1590103045,80,11.0,122.67,3.51,82.8
ayagoz,21,KZ,1590103045,88,47.97,80.44,6.85,50.61
mbaiki,100,CF,1590103045,97,3.87,17.99,2.82,67.41
avarua,75,CK,1590103046,61,-21.21,-159.78,12.75,80.6
yarada,42,IN,1590103046,76,17.65,83.27,9.84,84.6
busselton,0,AU,1590103046,64,-33.65,115.33,6.67,46.99
sao filipe,15,IN,1590103046,47,20.51,76.21,14.92,79.48
clyde river,100,US,1590102822,89,41.3,-82.98,3.0,62.01
iqaluit,75,CA,1590103046,63,63.75,-68.51,10.29,28.4
seminole,20,US,1590103046,62,28.71,-81.21,14.99,91.0
mataura,18,NZ,1590103046,88,-46.19,168.86,1.99,53.71
tecoanapa,49,MX,1590103046,60,16.52,-98.75,11.81,86.77
nikolskoye,99,RU,1590103046,70,59.7,30.79,6.71,42.8
kaitangata,71,NZ,1590103047,76,-46.28,169.85,3.47,53.1
butaritari,6,KI,1590103047,82,3.07,172.79,15.77,83.01
bilibino,85,RU,1590103047,91,68.05,166.44,5.59,28.65
khandyga,100,RU,1590103047,48,62.67,135.6,2.39,55.58
tasiilaq,100,GL,1590103047,91,65.61,-37.64,24.16,39.2
talnakh,82,RU,1590103047,50,69.49,88.4,13.42,57.2
thompson,90,CA,1590103047,51,55.74,-97.86,14.99,39.2
kodiak,90,US,1590103047,93,57.79,-152.41,17.22,46.4
qaanaaq,48,GL,1590103047,90,77.48,-69.36,2.64,31.19
lumberton,90,US,1590103047,88,34.62,-79.01,4.7,73.4
keti bandar,19,AM,1590103047,61,40.87,43.84,2.24,50.0
north bend,99,FR,1590103047,82,50.33,3.67,8.75,64.99
key west,75,US,1590103047,8,32.73,-101.8,11.41,95.0
vagur,0,FO,1590103047,82,61.47,-6.81,11.34,46.98
soligalich,100,RU,1590103048,93,59.08,42.29,11.27,39.25
praia,20,CV,1590103048,73,14.92,-23.51,10.29,73.4
davenda,24,RU,1590103048,49,53.56,119.32,7.83,52.07
zambezi,0,ZM,1590103048,64,-13.54,23.1,6.02,56.98
nampula,75,MZ,1590103048,88,-15.12,39.27,6.93,66.2
cape town,0,CL,1590102983,76,-36.41,-71.9,6.93,51.8
sao miguel do araguaia,15,IN,1590103048,47,20.51,76.21,14.92,79.48
codrington,98,AU,1590103048,88,-38.27,141.97,6.8,49.55
kudahuvadhoo,94,MV,1590103048,76,2.67,72.89,20.94,83.84
gamboula,99,CF,1590103048,98,4.12,15.14,5.32,66.76
hilo,40,US,1590103048,65,19.73,-155.09,9.17,82.4
ayna,38,PE,1590103049,72,-12.65,-73.92,1.57,62.38
kruisfontein,10,ZA,1590103049,85,-34.0,24.73,10.92,60.71
nuuk,100,GL,1590103049,94,64.18,-51.72,8.05,33.8
labytnangi,22,RU,1590103049,69,66.66,66.42,7.7,54.64
saint-philippe,51,RE,1590103049,73,-21.36,55.77,18.34,71.6
praia da vitoria,20,CV,1590103049,73,14.92,-23.51,10.29,73.4
san patricio,29,ML,1590102905,11,13.3,-4.9,5.01,95.45
rettikhovka,79,RU,1590103049,59,44.17,132.77,2.68,54.1
kavieng,6,PG,1590103049,73,-2.57,150.8,6.46,84.24
melfi,5,IT,1590103049,93,41.0,15.65,6.93,59.0
albany,1,US,1590103049,22,42.6,-73.97,4.54,75.0
carballo,100,ES,1590103049,85,43.21,-8.69,5.01,63.0
carutapera,100,BR,1590103049,91,-1.2,-46.02,6.02,77.59
westport,1,US,1590103049,63,41.14,-73.36,6.93,61.0
raudeberg,85,NO,1590103049,85,61.99,5.14,2.77,51.01
georgetown,20,MY,1590103049,88,5.41,100.34,5.57,84.2
barrow,90,US,1590103049,85,71.29,-156.79,18.34,24.8
cidreira,100,BR,1590103050,94,-30.18,-50.21,3.42,66.42
katsuura,75,JP,1590103050,93,35.13,140.3,5.82,59.0
izhma,41,RU,1590103050,86,65.01,53.91,6.85,41.9
arraial do cabo,4,BR,1590103050,46,-22.84,-46.65,4.7,73.4
lompoc,1,US,1590103050,68,34.64,-120.46,13.87,68.0
hermanus,72,ZA,1590103050,96,-34.42,19.23,5.91,54.0
pevek,3,RU,1590103050,95,69.7,170.31,3.33,29.3
dafeng,100,CN,1590102904,88,23.45,108.59,3.89,74.52
punta arenas,100,PH,1590103050,84,8.99,125.34,4.0,79.3
nsanje,0,MW,1590103050,94,-16.92,35.26,1.74,61.84
hamilton,90,US,1590102855,82,39.18,-84.53,5.82,63.0
atuona,27,PF,1590103050,77,-9.8,-139.03,17.85,80.49
pitimbu,20,BR,1590103050,94,-7.47,-34.81,3.36,78.8
chuy,100,UY,1590103050,95,-33.7,-53.46,11.01,62.58
kaa-khem,0,RU,1590103050,40,51.68,94.73,5.95,55.29
aktash,100,RU,1590103050,96,50.3,87.73,6.4,39.94
sragen,87,ID,1590103051,83,-7.43,111.02,3.06,75.69
guilin,75,CN,1590103051,94,25.28,110.29,2.24,69.8
ponta do sol,100,PT,1590103051,80,38.73,-28.27,9.69,54.32
kushmurun,86,KZ,1590103051,95,52.45,64.63,10.02,49.62
luderitz,0,NA,1590103051,77,-26.65,15.16,3.36,62.6
grafton,3,US,1590102815,39,42.21,-71.69,4.0,72.0
geraldton,0,AU,1590103051,57,-28.77,114.6,12.75,50.0
vaitape,18,PF,1590103051,76,-16.52,-151.75,23.06,79.81
vostok,100,RU,1590103051,44,46.49,135.88,1.61,52.74
florianopolis,20,BR,1590103051,88,-27.61,-48.5,11.41,71.6
pascagoula,20,US,1590103051,66,30.37,-88.56,8.05,84.2
naryan-mar,92,RU,1590103052,93,67.67,53.09,10.0,36.18
periyapatti,55,IN,1590103052,76,10.75,77.27,17.81,76.17
haines junction,1,US,1590103052,55,59.23,-135.44,10.29,60.8
druzhba,90,UA,1590103052,87,52.04,33.95,5.48,39.25
grindavik,75,IS,1590103052,100,63.84,-22.43,19.46,46.4
thyboron,97,DK,1590103052,82,56.7,8.21,5.77,55.0
dikson,81,RU,1590103052,96,73.51,80.55,14.97,37.92
usinsk,12,RU,1590103052,76,65.99,57.53,13.06,47.7
ambrolauri,40,GE,1590103052,53,42.52,43.16,9.17,73.4
airai,97,TL,1590103052,100,-8.93,125.41,2.91,63.16
dehloran,0,IR,1590103052,14,32.69,47.27,5.75,91.94
mabaruma,100,GY,1590103052,86,8.2,-59.78,4.65,78.26
nadym,43,RU,1590103052,60,65.53,72.52,14.79,59.2
cabo san lucas,40,BR,1590103052,78,-8.28,-35.03,6.93,82.4
lebu,6,CL,1590103053,74,-37.62,-73.65,4.7,51.49
joensuu,98,FI,1590103053,65,62.6,29.76,4.7,42.01
duku,62,NG,1590103053,48,11.24,4.91,7.54,88.79
itarema,96,BR,1590103053,87,-2.92,-39.92,9.89,78.49
honggang,41,CN,1590103053,64,46.47,124.87,9.98,61.29
ostrovnoy,100,RU,1590103053,88,68.05,39.51,16.93,34.16
komsomolskiy,0,UZ,1590103053,48,40.43,71.72,6.93,62.6
mahebourg,75,MU,1590103053,73,-20.41,57.7,18.34,75.2
vila,96,PT,1590103053,87,42.03,-8.16,2.33,57.0
boiro,100,ES,1590103053,88,42.65,-8.9,7.0,62.01
trairi,51,BR,1590103053,91,-3.28,-39.27,8.08,77.4
batticaloa,99,LK,1590103053,74,7.71,81.69,7.23,82.47
creston,90,US,1590102948,82,41.06,-94.36,10.29,64.4
nhulunbuy,40,AU,1590103053,74,-12.23,136.77,17.22,78.8
upernavik,0,GL,1590103053,94,72.79,-56.15,9.48,31.75
lata,38,PT,1590103053,86,40.16,-8.33,1.43,61.0
kushima,75,JP,1590103053,77,31.46,131.23,4.7,62.6
lensk,3,RU,1590103053,44,60.73,114.93,3.29,55.92
bredasdorp,83,ZA,1590103053,82,-34.53,20.04,3.36,57.2
ucluelet,20,CA,1590103054,62,48.93,-125.55,24.16,59.0
lieksa,67,FI,1590103054,86,63.32,30.02,6.64,35.11
martinho campos,92,BR,1590103054,97,-2.0,-48.65,2.82,75.52
nemuro,20,JP,1590103054,81,43.32,145.57,5.26,40.8
kitui,20,KE,1590103054,98,-1.37,38.01,6.31,60.48
katobu,100,ID,1590103054,96,-4.94,122.53,1.3,75.2
jiancheng,98,CN,1590103054,88,30.39,104.55,4.47,81.0
marzuq,69,YE,1590103054,51,14.4,46.47,3.15,79.99
toamasina,75,MG,1590103054,94,-18.17,49.38,11.41,69.8
pisco,5,PE,1590102830,79,-13.7,-76.22,10.0,66.99
asfi,91,MA,1590103054,75,32.3,-9.24,13.51,68.41
nome,90,US,1590103054,87,64.5,-165.41,13.87,46.4
gornopravdinsk,17,RU,1590103054,87,60.05,69.9,8.9,46.76
new norfolk,60,LR,1590103055,95,6.65,-10.59,0.69,75.78
mar del plata,83,ES,1590103055,93,43.4,-4.01,2.24,66.0
lebedyn,0,UA,1590103055,87,50.59,34.48,5.53,39.74
tungor,100,RU,1590103055,85,53.38,142.96,7.58,38.37
ilhabela,0,BR,1590103055,78,-23.78,-45.36,5.73,70.56
erzin,4,TR,1590103055,52,36.96,36.2,5.82,69.8
port-gentil,20,GA,1590103055,88,-0.72,8.78,5.82,78.8
severo-kurilsk,12,RU,1590103055,74,50.68,156.12,15.75,40.03
viedma,33,AR,1590103055,68,-40.81,-63.0,4.09,48.33
guerrero negro,24,MX,1590103055,21,17.67,-100.0,1.48,91.96
torbay,20,CA,1590103055,57,47.67,-52.73,19.46,52.0
khatanga,77,RU,1590103055,64,71.97,102.5,7.4,57.38
mys shmidta,42,RU,1590103055,86,62.06,48.62,9.93,39.85
richards bay,90,US,1590103055,68,46.84,-95.91,13.87,64.4
singapore,75,SG,1590102818,88,1.29,103.85,1.12,82.4
port lincoln,12,CD,1590103056,66,-7.03,29.76,6.38,72.34
isangel,20,VU,1590103056,73,-19.55,169.27,9.24,73.4
san ramon,29,ML,1590103056,11,13.3,-4.9,5.01,95.45
trincomalee,91,LK,1590103056,76,8.57,81.23,19.98,83.14
iturama,0,BR,1590103056,79,-19.73,-50.2,5.32,70.39
koltubanovskiy,64,RU,1590103056,87,52.94,52.03,4.47,46.8
chestermere,90,CA,1590102843,93,51.03,-113.82,27.51,44.01
caravelas,1,BR,1590103056,89,-17.71,-39.25,6.15,72.36
kathu,40,TH,1590103056,83,7.92,98.33,8.05,82.4
oistins,40,BB,1590103056,78,13.07,-59.53,19.46,82.4
bonavista,88,CA,1590103056,80,48.65,-53.11,1.86,43.29
sistranda,72,NO,1590103056,66,63.73,8.83,8.05,50.0
waingapu,100,ID,1590103056,85,-9.66,120.26,7.31,78.28
sayyan,57,YE,1590103056,58,15.17,44.32,1.79,63.48
sobolevo,68,RU,1590103057,98,54.43,31.9,6.73,33.12
faanui,20,PF,1590103057,78,-16.48,-151.75,23.09,79.0
turukhansk,75,RU,1590103057,50,65.82,87.98,11.65,62.58
longyearbyen,75,SJ,1590103057,94,78.22,15.64,16.11,32.0
bury saint edmunds,100,GB,1590102988,56,53.6,-2.3,5.99,66.0
ngunguru,25,NZ,1590103057,87,-35.62,174.5,5.99,60.01
zhigansk,83,RU,1590103057,79,66.77,123.37,22.84,36.82
cayenne,100,GF,1590103057,100,4.93,-52.33,13.04,78.8
castro,60,BR,1590102972,89,-24.79,-50.01,5.55,59.72
aksarka,8,RU,1590103057,64,66.56,67.8,9.98,55.8
cherskiy,0,RU,1590103057,67,68.75,161.3,6.73,38.88
esperance,0,AU,1590103057,100,-33.87,121.9,12.75,46.4
san quintin,29,ML,1590102905,11,13.3,-4.9,5.01,95.45
sivaki,100,RU,1590103057,71,52.63,126.75,1.59,53.33
saldanha,38,ZA,1590103057,77,-33.01,17.94,1.12,60.8
kharp,38,RU,1590103057,68,66.8,65.81,6.87,53.01
tromso,8,NO,1590103057,74,69.65,18.96,16.11,37.4
dalby,81,AU,1590103057,87,-27.18,151.27,12.75,46.4
chokurdakh,100,RU,1590103058,98,70.63,147.92,8.37,30.87
jagdalpur,26,IN,1590103058,19,19.07,82.03,1.3,73.92
itanhem,49,BR,1590103058,92,-17.17,-40.33,4.5,68.25
wamba,93,NG,1590102922,93,8.93,8.6,1.43,74.37
hualmay,3,PE,1590103058,78,-11.1,-77.61,11.39,65.89
andros town,29,GR,1590103058,71,37.83,24.93,11.99,66.0
taoudenni,0,ML,1590103058,12,22.68,-3.98,8.55,87.31
namibe,0,AO,1590103058,56,-15.2,12.15,1.57,75.96
sorland,79,NO,1590103058,75,67.67,12.69,8.7,41.76
nabire,76,ID,1590103058,80,-3.37,135.48,2.01,81.36
aktau,9,KZ,1590103058,93,43.65,51.2,13.42,59.0
leningradskiy,99,RU,1590103058,97,69.38,178.42,5.17,30.18
weyburn,30,CA,1590103058,25,49.67,-103.85,10.0,78.01
victoria,100,HK,1590103058,89,22.29,114.16,11.01,84.0
hambantota,89,LK,1590103058,77,6.12,81.12,17.76,82.22
takoradi,84,GH,1590103058,82,4.88,-1.76,11.3,80.56
mandurah,0,AU,1590103059,93,-32.55,115.7,1.12,53.01
noumea,20,NC,1590103059,53,-22.28,166.46,4.7,73.99
dakar,20,SN,1590102901,88,14.69,-17.44,11.41,71.6
boffa,0,GN,1590103059,77,10.17,-14.03,3.36,77.81
beringovskiy,100,RU,1590103059,95,63.05,179.32,16.13,30.85
gorontalo,95,ID,1590103059,85,0.54,123.06,1.59,78.39
tarakan,100,ID,1590103059,82,3.3,117.63,7.07,79.79
hauterive,67,FR,1590103059,72,46.09,3.45,2.98,62.6
kalianget,100,ID,1590103059,85,-7.05,113.93,9.17,80.96
sao joao da barra,15,IN,1590103048,47,20.51,76.21,14.92,79.48
chongqing,40,CN,1590103059,94,29.56,106.55,4.47,71.01
sorkjosen,9,NO,1590103059,89,69.8,20.93,8.41,32.23
hasaki,75,JP,1590103059,100,35.73,140.83,11.41,59.0
roald,99,NO,1590103059,66,62.58,6.13,6.93,53.6
nanakuli,75,US,1590103059,65,21.39,-158.15,9.17,84.0
angoche,0,MZ,1590103059,79,-16.23,39.91,7.07,71.02
nurota,0,UZ,1590103060,62,40.56,65.69,6.93,59.0
kalmunai,99,LK,1590103060,78,7.42,81.82,2.59,82.35
shubarkuduk,53,KZ,1590103060,87,49.14,56.49,7.23,54.32
yeppoon,75,AU,1590103060,67,-23.13,150.73,16.11,62.6
cap malheureux,100,FR,1590103060,62,49.27,-1.21,8.05,66.0
souillac,75,MU,1590103060,73,-20.52,57.52,18.34,75.2
talant,64,FR,1590103060,93,47.34,5.01,2.24,60.8
saint-pierre,2,RE,1590103060,73,-21.34,55.48,18.34,71.6
havre-saint-pierre,90,CA,1590103060,87,50.23,-63.6,6.93,46.4
east london,0,IS,1590103060,81,65.0,-15.0,6.93,42.8
buala,43,SB,1590103060,76,-8.14,159.59,9.6,84.81
broadstairs,100,GB,1590103060,61,51.36,1.44,1.01,63.0
montepuez,2,MZ,1590103060,97,-13.13,39.0,6.35,62.02
oktyabrskoye,26,RU,1590103060,88,43.06,44.74,6.71,64.4
gerash,28,IR,1590103060,42,27.67,54.14,2.82,74.5
shubarshi,71,KZ,1590103060,82,48.59,57.19,7.76,54.57
zemio,79,CF,1590103060,95,5.03,25.14,0.69,68.25
russell,20,US,1590103061,58,32.35,-85.2,4.99,82.4
lorengau,32,PG,1590103061,71,-2.02,147.27,5.53,85.53
vila franca do campo,96,PT,1590103061,87,42.03,-8.16,2.33,57.0
mamallapuram,20,IN,1590103061,74,12.63,80.17,9.17,86.0
belyy yar,78,RU,1590103061,95,55.84,32.94,4.9,33.93
hirna,66,ET,1590103061,81,9.22,41.1,7.05,63.09
rengo,20,CL,1590103061,62,-34.42,-70.87,4.7,55.4
ormara,0,PK,1590103061,56,25.21,64.64,15.3,86.02
palizada,20,MX,1590103061,70,18.25,-92.08,11.41,89.6
touros,40,BR,1590103061,94,-5.2,-35.46,3.36,78.8
garoua,97,CM,1590103061,73,9.3,13.4,0.72,78.08
moose factory,75,US,1590103061,49,43.66,-110.72,19.46,51.8
bantou,100,CN,1590103062,90,26.22,117.49,3.15,66.56
lima,75,PE,1590102846,72,-12.04,-77.03,9.17,66.2
akdagmadeni,66,TR,1590103062,44,39.66,35.88,5.12,61.79
binzhou,1,CN,1590103062,61,37.37,118.02,10.76,73.0
preobrazheniye,63,RU,1590103062,63,42.9,133.91,6.46,49.39
bagotville,100,AU,1590103062,62,-28.98,153.42,10.29,55.4
batagay-alyta,88,RU,1590103062,90,67.8,130.41,12.1,30.63
huarmey,3,PE,1590103062,79,-10.07,-78.15,11.21,67.15
mount gambier,97,GB,1590103062,69,53.66,-1.85,4.0,63.0
kamaishi,75,JP,1590103062,100,39.27,141.88,2.24,48.2
novyy khushet,75,RU,1590103062,93,45.01,38.98,6.71,54.0
fallon,75,US,1590103062,9,39.47,-118.78,19.46,78.8
comodoro rivadavia,67,BR,1590103004,95,-13.66,-59.79,4.14,70.32
meadow lake,8,US,1590103062,29,45.53,-102.22,14.85,75.99
yulara,20,AU,1590103062,70,-25.24,130.99,8.05,46.4
jalu,60,LY,1590103063,34,29.03,21.55,12.53,76.84
sandnessjoen,100,NO,1590103063,45,66.02,12.63,3.36,46.4
santiago del estero,20,CL,1590103063,62,-33.46,-70.65,3.22,55.4
pangoa,28,PE,1590103063,79,-12.12,-73.0,1.21,73.76
coos bay,90,US,1590103063,71,43.17,-124.0,13.87,59.0
puerto escondido,93,ES,1590103064,88,36.59,-6.23,2.24,71.01
kabalo,42,CD,1590103064,80,-6.05,26.92,3.11,71.6
yerbogachen,7,RU,1590103064,64,61.28,108.01,5.21,53.98
kaohsiung,75,TW,1590102967,94,22.62,120.31,5.82,78.8
chandbali,80,IN,1590103064,89,20.78,86.77,3.87,82.38
myanaung,100,MM,1590103064,76,18.28,95.32,3.02,81.52
carnarvon,0,AU,1590103065,32,-24.87,113.63,10.67,61.34
nishihara,90,JP,1590103065,94,26.18,127.76,19.46,71.6
saint-joseph,23,RE,1590103065,73,-21.37,55.62,18.34,71.6
maniitsoq,100,GL,1590103065,97,65.42,-52.9,11.72,33.87
rawson,0,AR,1590103066,50,-43.3,-65.1,4.76,50.97
baghdad,0,IQ,1590103066,39,33.34,44.4,3.36,78.8
ulladulla,82,AU,1590103066,71,-35.35,150.47,10.29,53.01
west freehold,40,US,1590103066,52,31.8,-97.09,13.87,89.6
honningsvag,14,NO,1590103029,78,70.98,25.97,10.4,38.84
ornskoldsvik,0,SE,1590103066,80,63.29,18.72,3.36,30.2
bambous virieux,75,MU,1590103066,73,-20.26,57.41,18.34,75.2
klaksvik,8,FO,1590103066,93,62.23,-6.59,3.36,44.6
magistralnyy,0,RU,1590103066,45,56.17,107.45,9.26,53.13
lukovetskiy,90,RU,1590103066,74,64.3,41.92,8.95,35.6
gedo,100,ET,1590103067,100,9.02,37.45,1.25,54.46
yaan,87,NG,1590103067,90,7.38,8.57,9.17,75.25
alice springs,1,US,1590103067,62,27.75,-98.07,16.11,91.4
okhotsk,0,RU,1590103067,52,59.38,143.3,3.69,48.47
nanlong,100,CN,1590103067,81,31.35,106.06,5.39,71.55
halifax,68,CA,1590102879,48,44.65,-63.57,1.99,66.0
half moon bay,75,LR,1590103067,89,6.38,-10.7,2.21,78.51
bilma,0,NE,1590103067,22,18.69,12.92,11.21,90.55
djibo,3,BF,1590103067,10,14.1,-1.63,12.44,93.65
liverpool,100,GB,1590103065,55,53.41,-2.98,11.41,66.2
teguldet,7,RU,1590103067,61,57.31,88.17,4.45,55.51
puerto lempira,93,ES,1590103042,88,36.59,-6.23,2.24,71.01
matamoros,40,MX,1590103067,11,25.53,-103.25,10.29,96.8
kutum,54,SD,1590103067,50,14.2,24.67,4.88,71.49
sinazongwe,0,ZM,1590103067,58,-17.26,27.46,4.36,64.67
port elizabeth,12,CD,1590103056,66,-7.03,29.76,6.38,72.34
svetlogorsk,99,BY,1590103068,91,52.63,29.73,9.13,37.62
luau,29,AO,1590103068,62,-10.71,22.22,4.88,61.66
soure,62,BR,1590103068,82,-0.72,-48.52,10.13,81.12
hovd,98,MN,1590103068,41,48.01,91.64,3.13,62.56
ambulu,97,ID,1590103068,86,-8.35,113.61,2.46,76.41
evensk,100,RU,1590103068,59,61.95,159.23,1.57,44.6
warburg,30,DE,1590103068,62,51.5,9.17,4.43,62.01
tura,100,IN,1590103068,99,25.52,90.22,3.58,71.96
makakilo city,75,US,1590103068,65,21.35,-158.09,9.17,84.0
ust-nera,32,RU,1590103068,55,64.57,143.2,6.06,44.94
bubaque,0,GW,1590103068,76,11.28,-15.83,17.27,78.62
mayumba,34,GA,1590103068,87,-3.43,10.66,3.09,77.29
mehamn,27,NO,1590103069,85,71.04,27.85,11.81,36.75
dubbo,18,AU,1590102923,76,-32.25,148.62,11.41,48.2
oga,43,IT,1590103069,86,46.46,10.35,2.24,53.6
neuquen,20,AR,1590103069,61,-38.95,-68.06,2.24,50.0
najran,30,SA,1590103069,57,17.49,44.13,7.7,77.0
beisfjord,1,NO,1590103069,74,68.38,17.6,6.93,33.8
pindiga,100,NG,1590103069,61,9.98,10.93,4.43,76.71
college,75,US,1590103069,28,64.86,-147.8,4.7,69.01
eravur,99,LK,1590103069,71,7.77,81.61,7.45,82.26
vardo,45,NO,1590103069,81,70.37,31.11,11.5,38.21
saint-michel-des-saints,87,CA,1590103069,42,46.68,-73.92,7.94,68.59
ribeira grande,75,ES,1590103069,93,42.75,-8.44,8.05,62.01
promyshlennaya,90,RU,1590103070,100,54.92,85.64,8.95,55.4
bardiyah,70,LY,1590103070,77,31.76,25.09,8.16,68.31
tegh,31,AM,1590103070,52,39.56,46.48,7.99,58.17
waitara,7,NZ,1590103070,66,-38.92,174.25,5.99,48.0
khudumelapye,0,BW,1590103070,56,-23.88,24.75,6.71,53.89
pribor,6,CZ,1590103070,75,49.64,18.14,1.12,42.01
ponta delgada,100,PT,1590103070,80,38.73,-28.27,9.69,54.32
beni suef,92,CD,1590103070,100,0.5,29.47,1.45,62.62
anloga,20,GH,1590103070,83,5.79,0.9,12.75,84.2
honiara,40,SB,1590103070,66,-9.43,159.95,6.15,86.0
san francisco,29,ML,1590103056,11,13.3,-4.9,5.01,95.45
stornoway,97,GB,1590103070,81,58.21,-6.39,10.29,51.8
jacareacanga,97,BR,1590102956,82,-6.22,-57.75,1.19,78.12
bancal,98,PH,1590103070,78,11.56,123.16,8.3,84.13
saint-francois,73,FR,1590103070,82,46.42,3.91,3.33,59.0
iskateley,90,RU,1590103071,93,67.68,53.15,9.73,36.1
ifanadiana,86,MG,1590103071,94,-21.3,47.63,0.72,60.69
mahibadhoo,100,MV,1590103071,77,3.78,72.97,22.84,83.8
hurghada,1,EG,1590103071,54,27.26,33.81,4.7,84.2
krasnyy kut,54,RU,1590103071,97,54.57,31.43,7.05,35.98
benguela,0,AO,1590103071,80,-12.58,13.41,2.33,74.64
manjacaze,0,MZ,1590103071,94,-24.71,33.88,1.36,63.21
asau,96,RO,1590103071,71,46.43,26.4,6.93,50.0
fare,9,PF,1590103071,76,-16.7,-151.02,22.59,79.75
pirpirituba,22,BR,1590103071,91,-6.78,-35.5,6.4,74.12
traun,75,AT,1590103071,58,48.23,14.23,6.93,59.0
storforshei,54,NO,1590103071,74,66.4,14.52,4.54,36.0
peniche,39,PT,1590103071,87,39.36,-9.38,4.0,60.01
dustlik,4,UZ,1590103071,47,40.52,68.04,3.89,63.63
buraydah,0,SA,1590103072,24,26.33,43.98,4.7,78.8
griffith,90,US,1590103072,77,41.53,-87.42,6.71,66.0
narsaq,100,GL,1590103072,60,60.92,-46.05,11.41,41.0
sitka,40,US,1590103072,62,57.05,-135.33,12.75,55.4
christchurch,93,NZ,1590103072,45,-43.53,172.63,5.82,62.6
port blair,12,CD,1590103072,66,-7.03,29.76,6.38,72.34
kamalpur,98,IN,1590103072,72,24.2,91.83,6.8,79.03
jiangyou,100,CN,1590103072,56,31.77,104.72,3.38,72.59
haifa,1,IL,1590103072,39,32.82,34.99,2.95,79.68
jiuquan,26,CN,1590103072,39,39.74,98.52,10.38,65.44
camacha,40,PT,1590103072,82,33.08,-16.33,8.05,64.4
marawi,100,PH,1590103072,91,8.0,124.29,1.01,79.0
santa cruz,100,PH,1590103072,77,17.49,120.43,4.05,82.42
guadalajara,5,MX,1590102797,12,20.67,-103.33,13.87,90.0
maceio,40,BR,1590103072,94,-9.67,-35.74,4.7,77.0
portland,75,US,1590102774,71,45.52,-122.68,11.41,60.01
panguna,24,PG,1590103073,74,-6.32,155.48,3.13,80.28
bulaevo,54,KZ,1590103073,74,54.91,70.44,11.97,51.69
pachino,1,IT,1590103073,83,36.72,15.09,4.54,63.0
estelle,75,US,1590103073,62,29.85,-90.11,11.41,89.6
aitape,2,PG,1590103073,67,-3.14,142.35,1.39,84.31
avera,90,US,1590103073,57,33.19,-82.53,3.36,78.8
yarkovo,30,RU,1590103073,89,57.4,67.08,8.3,46.02
tabou,31,CI,1590103073,84,4.42,-7.35,7.99,79.61
zabid,54,YE,1590103073,37,14.2,43.32,3.6,92.39
kalengwa,0,ZM,1590103073,76,-13.47,25.0,4.74,53.58
virginia beach,90,US,1590102804,88,37.55,-77.45,10.29,64.99
priiskovyy,100,RU,1590103073,69,51.93,116.63,13.47,52.02
robinson,40,US,1590103073,52,31.47,-97.11,18.34,91.4
hofn,1,IS,1590103073,89,64.25,-15.21,1.81,46.56
isoka,28,ZM,1590103074,96,-10.16,32.63,1.25,55.2
bismarck,20,US,1590102804,39,46.81,-100.78,21.92,78.8
bloomingdale,1,US,1590103074,62,27.89,-82.24,4.7,89.6
salinopolis,94,BR,1590103074,83,-0.61,-47.36,9.57,80.62
bayji,0,IQ,1590103074,13,34.93,43.49,4.45,87.01
fort nelson,79,NL,1590103074,62,52.65,6.39,7.76,66.0
guia lopes da laguna,40,ES,1590103074,68,28.14,-15.63,25.28,66.99
gouyave,20,GD,1590103074,79,12.16,-61.73,20.8,84.2
port moresby,12,CD,1590103072,66,-7.03,29.76,6.38,72.34
kununurra,90,AU,1590103074,82,-15.77,128.73,10.29,64.4
coihaique,35,CL,1590103074,80,-45.58,-72.07,2.66,41.0
manta,20,EC,1590103074,74,-0.95,-80.73,14.99,80.6
mankachar,100,IN,1590103074,94,25.53,89.87,7.29,75.2
ashqelon,0,IL,1590103074,33,31.67,34.57,2.37,81.0
anchorage,75,US,1590103049,44,61.22,-149.9,6.93,57.2
parkes,90,AU,1590103075,91,-33.13,148.18,7.9,45.0
svetlaya,96,RU,1590103075,54,46.54,138.33,6.67,47.91
spirit river,1,US,1590103075,47,45.45,-90.11,12.75,75.2
sterling,90,US,1590102954,60,39.01,-77.43,8.05,69.01
khasan,98,RU,1590103075,85,42.43,130.64,8.12,47.21
bindi,66,SL,1590103075,81,9.92,-11.45,3.91,76.68
xining,87,CN,1590103075,54,36.62,101.77,0.74,54.64
mirnyy,51,RU,1590103075,32,62.54,113.96,8.95,53.6
ouadda,54,CF,1590103075,96,8.08,22.4,3.69,68.52
lekoni,36,GA,1590103075,83,-1.58,14.26,4.32,74.5
san luis,29,ML,1590103056,11,13.3,-4.9,5.01,95.45
oranjemund,4,NA,1590103075,92,-28.55,16.43,9.48,59.22
tuensang,96,IN,1590103075,84,26.28,94.83,2.17,68.54
cape coast,0,CL,1590102983,76,-36.41,-71.9,6.93,51.8
chernyshevskiy,0,RU,1590103076,63,63.01,112.47,5.57,50.18
karasjok,4,NO,1590103076,96,69.47,25.51,4.7,32.0
baglung,4,NP,1590103076,60,28.27,83.59,2.17,67.44
kosonsoy,0,UZ,1590103076,51,41.26,71.55,9.17,62.6
athabasca,100,CA,1590102943,90,54.72,-113.29,18.03,44.1
maridi,97,SS,1590103076,96,4.92,29.47,4.23,68.0
kassala,100,SD,1590103076,61,15.45,36.4,19.66,82.0
mtwango,50,TZ,1590103076,91,-9.02,34.8,8.77,52.9
marystown,12,CA,1590103076,76,47.17,-55.15,18.23,43.27
cukai,51,MY,1590103076,94,4.25,103.42,4.05,78.8
kahului,40,US,1590103076,46,20.89,-156.47,24.16,89.6
canico,20,PT,1590103076,68,32.63,-16.85,12.75,66.2
sampit,100,ID,1590103076,99,-2.53,112.95,3.2,75.2
karsun,0,RU,1590103076,92,54.2,46.98,5.64,39.02
sal rei,0,JO,1590103076,24,32.57,35.91,2.17,80.6
lai,99,TD,1590103076,78,9.4,16.3,4.05,75.58
bengkulu,54,ID,1590103077,82,-3.8,102.27,3.33,76.75
gasa,0,PS,1590102853,34,31.5,34.47,1.01,80.01
saint-augustin,98,CA,1590103077,69,51.23,-58.65,13.65,56.95
kaka,2,TM,1590103077,28,37.35,59.61,6.11,72.0
tautira,20,PF,1590103077,58,-17.73,-149.15,8.05,86.0
tokmak,61,UA,1590103077,67,47.25,35.71,7.7,47.75
paranaiba,0,BR,1590103077,80,-19.68,-51.19,5.12,71.19
winneba,53,GH,1590103077,83,5.35,-0.62,11.32,80.67
necochea,53,AR,1590102837,74,-38.55,-58.74,8.99,53.01
ilmajoki,0,FI,1590103077,86,62.73,22.57,1.12,35.01
ancud,40,CL,1590103077,87,-41.87,-73.82,2.24,46.4
kavaratti,100,IN,1590103077,71,10.57,72.64,10.36,84.92
kieta,28,PG,1590103077,73,-6.22,155.63,9.26,84.22
vilhena,20,BR,1590103077,83,-12.74,-60.15,5.82,77.0
valera,39,VE,1590103077,71,9.32,-70.6,2.19,79.09
shingu,93,JP,1590103077,94,33.73,135.98,8.48,62.47
flin flon,60,FR,1590103078,87,48.5,6.66,2.24,64.4
galbshtadt,86,RU,1590103078,58,53.23,78.98,3.31,52.99
prince rupert,90,CA,1590103078,59,52.97,-108.38,29.97,60.8
poyarkovo,61,RU,1590103078,48,49.6,128.68,4.41,64.18
ilulissat,0,GL,1590103078,74,69.22,-51.1,8.05,37.4
snezhnogorsk,66,RU,1590103078,92,69.19,33.25,9.51,26.6
camabatela,10,AO,1590103078,71,-8.19,15.38,0.89,62.87
itoman,75,JP,1590103078,88,26.12,127.67,18.34,71.6
cockburn town,90,AU,1590103078,66,-32.08,141.0,10.29,48.2
makinsk,58,KZ,1590103078,81,52.63,70.42,10.89,49.14
delano,1,US,1590103078,28,35.77,-119.25,10.29,87.01
baruun-urt,100,MN,1590103078,82,46.68,113.28,11.92,47.03
fortuna,90,US,1590102953,67,40.6,-124.16,16.11,61.0
mianyang,100,CN,1590103042,65,31.46,104.75,3.65,73.54
olafsvik,85,IS,1590103079,86,64.89,-23.71,11.7,46.36
gladstone,90,AU,1590103079,68,-23.85,151.25,8.05,64.4
rumoi,99,JP,1590103079,59,43.93,141.64,6.8,50.74
vangaindrano,62,MG,1590103079,89,-23.35,47.6,5.03,68.34
rondonopolis,5,BR,1590103079,76,-16.47,-54.64,3.36,76.84
adrar,15,MR,1590103079,12,20.5,-10.07,12.91,90.57
palu,93,ID,1590103079,81,-0.89,119.87,2.33,77.85
broome,1,US,1590103079,37,42.25,-75.83,6.93,72.0
rincon,75,US,1590102888,61,32.3,-81.24,2.68,80.6
albuquerque,20,US,1590102996,5,35.08,-106.65,10.29,80.01
sabang,85,ID,1590103079,77,5.89,95.32,15.41,83.66
mazagao,75,BR,1590103079,100,-0.12,-51.29,5.82,80.6
sakakah,40,SA,1590103079,10,29.97,40.21,9.17,86.0
lovozero,95,RU,1590103079,93,68.0,35.01,7.7,32.72
altus,1,US,1590103080,45,34.64,-99.33,18.34,87.8
shuangyashan,100,CN,1590103080,58,46.64,131.15,3.65,56.66
saint-gabriel,1,CA,1590103080,23,46.3,-73.38,17.22,75.2
bulgan,25,MN,1590103080,63,48.81,103.53,6.08,44.42
rafaela,100,AR,1590103080,62,-31.25,-61.49,11.99,55.99
plettenberg bay,47,DE,1590103080,88,51.22,7.88,4.25,61.0
micheweni,8,TZ,1590103080,78,-4.97,39.83,14.0,77.99
thinadhoo,99,MV,1590103080,74,0.53,72.93,16.35,85.01
katherine,90,AU,1590103080,88,-14.47,132.27,8.05,64.4
ouargaye,3,BF,1590103080,33,11.5,0.06,11.01,93.07
pemangkat,100,ID,1590103080,91,1.17,108.97,12.12,77.92
sokoni,40,TZ,1590103080,94,-6.43,39.55,5.82,71.6
krutaya gorka,6,RU,1590103080,86,54.31,35.81,4.47,37.4
ilam,100,NP,1590103080,97,26.92,87.92,1.34,63.79
akdepe,66,TM,1590103080,45,42.06,59.38,9.17,69.8
huanren,100,CN,1590103080,91,41.26,125.37,4.59,53.65
constitucion,20,CL,1590103081,67,-35.33,-72.42,7.36,53.31
newark,20,US,1590102862,63,40.74,-74.17,9.17,64.99
port keats,12,CD,1590103056,66,-7.03,29.76,6.38,72.34
trifesti,7,RO,1590103081,65,47.45,27.52,1.01,45.0
loa janan,8,US,1590103081,16,38.4,-111.64,7.0,69.01
havoysund,50,NO,1590103081,86,71.0,24.66,6.93,33.8
wanaka,75,NZ,1590102914,74,-44.7,169.15,8.43,52.12
klyuchi,93,RU,1590103081,69,52.27,79.17,2.89,54.23
agadir,40,MA,1590102823,88,30.42,-9.6,5.84,66.2
panaba,42,MX,1590103081,58,21.28,-88.27,17.43,87.8
lagoa,100,PT,1590103081,66,39.05,-27.98,13.2,58.82
kalavai,83,IN,1590103081,47,12.77,79.42,7.52,87.53
iskandar,2,UZ,1590103081,67,41.55,69.7,6.93,62.6
qeshm,40,IR,1590103081,27,26.96,56.27,4.7,93.2
nacala,5,MZ,1590103081,92,-14.54,40.67,7.52,67.75
teahupoo,20,PF,1590103081,58,-17.83,-149.27,8.05,86.0
verkhoyansk,100,RU,1590103081,79,67.54,133.38,13.58,35.82
rio gallegos,20,GR,1590103082,87,38.3,21.78,0.6,60.8
mayo,75,US,1590102877,68,38.89,-76.51,6.93,68.0
paita,0,PE,1590103082,74,-5.09,-81.11,18.1,70.47
brae,39,GB,1590103082,93,60.4,-1.35,4.7,50.0
terrace bay,75,CA,1590103082,47,54.52,-128.6,8.05,57.2
winchester,100,GB,1590103082,67,51.07,-1.32,5.82,61.0
letka,100,RU,1590103082,90,59.6,49.42,9.91,46.71
boca do acre,0,IT,1590103082,88,45.68,8.41,3.47,64.0
tupik,18,RU,1590103082,54,54.43,119.93,5.68,49.69
amalapuram,32,IN,1590103082,94,16.58,82.02,2.73,81.48
youghal,75,IE,1590103082,93,51.95,-7.85,24.16,55.0
lavrentiya,100,RU,1590103082,95,65.58,-171.0,9.28,33.1
san juan,29,ML,1590102905,11,13.3,-4.9,5.01,95.45
andapa,8,MG,1590103082,88,-14.65,49.65,3.56,60.01
mundra,0,IN,1590102871,72,22.85,69.73,15.12,81.95
amapa,100,BR,1590103083,98,1.0,-52.0,2.68,74.95
nichinan,75,JP,1590103083,77,31.6,131.37,4.7,62.6
eyl,4,SO,1590103083,65,7.98,49.82,24.45,84.85
dryden,1,CA,1590103083,34,49.78,-92.75,16.11,80.6
bireun,91,ID,1590103083,70,5.2,96.7,4.61,77.74
zhuanghe,100,CN,1590103083,91,39.7,122.99,18.21,55.94
darhan,100,MN,1590103084,67,49.49,105.92,1.03,48.76
atlantic city,75,US,1590102940,67,39.47,-74.67,8.05,64.0
atar,0,MR,1590103084,12,20.52,-13.05,9.98,89.4
port pirie,12,CD,1590103044,66,-7.03,29.76,6.38,72.34
buta,70,CD,1590103084,98,2.79,24.73,2.21,69.82
ghanzi,0,BW,1590103084,44,-21.57,21.78,7.65,55.38
ngara,1,TZ,1590103085,100,-2.51,30.66,2.62,54.3
linxia,100,CN,1590103085,42,35.6,103.21,3.71,59.23
sulphur springs,40,US,1590103085,74,30.24,-93.38,12.75,87.01
crestview,1,US,1590103085,51,30.76,-86.57,10.29,86.0
san carlos de bariloche,29,ML,1590103056,11,13.3,-4.9,5.01,95.45
vikhorevka,8,RU,1590103085,58,56.12,101.16,2.24,55.0
maragogi,11,BR,1590103086,84,-9.01,-35.22,9.55,78.82
japura,33,ID,1590103086,92,-0.32,102.35,1.1,74.68
chota,77,PE,1590103086,87,-6.55,-78.65,3.53,57.85
okha,100,RU,1590103086,86,53.57,142.95,6.44,37.56
